[
    {
        "nome": "São Caetano do Sul, SP",
        "lat": -23.627155754440196, 
        "lng": -46.5663453425742,
        "radius": 100000
    },
    {
        "nome": "Florianópolis, SC",
        "lat": -27.596875269157543, 
        "lng": -48.563710420337046,
        "radius": 75000
    },
    {
        "nome": "Vitória, ES",
        "lat": -20.281556976274917, 
        "lng": -40.29376182824125,
        "radius": 74000
    },
    {
        "nome": "Balneário Camboriú, SC",
        "lat": -27.006163260120946, 
        "lng": -48.62282330298199,
        "radius": 70000
    },
    {
        "nome": "Niterói, RJ",
        "lat": -22.906268169921947, 
        "lng": -43.05904194578501,
        "radius": 68000
    }
]